[{"id":1,"name":"Rosenheim","city":"Rosenheim","lat":47.8667984,"long":12.1128998,"form":"","sector":"","type":"client"},
{"id":2,"name":"Memmingen","city":"Memmingen","lat":47.9869003,"long":10.1966,"form":"","sector":"","type":"client"},
{"id":3,"name":"Freiburg im Breisgau","city":"Freiburg im Breisgau","lat":47.9985313,"long":7.8496499,"form":"","sector":"","type":"client"},
{"id":4,"name":"Landsberg am Lech","city":"Landsberg am Lech","lat":48.0573006,"long":10.8641005,"form":"","sector":"","type":"client"},
{"id":5,"name":"München","city":"München","lat":48.1390991,"long":11.5144997,"form":"","sector":"","type":"client"},
{"id":6,"name":"Fürstenfeldbruck","city":"Fürstenfeldbruck","lat":48.1721001,"long":11.2369003,"form":"","sector":"","type":"client"},
{"id":7,"name":"Dachau","city":"Dachau","lat":48.2601013,"long":11.4533997,"form":"","sector":"","type":"client"},
{"id":8,"name":"Landshut","city":"Landshut","lat":48.5447006,"long":12.1566,"form":"","sector":"","type":"client"},
{"id":9,"name":"Karlsruhe","city":"Karlsruhe","lat":49.0054016,"long":8.3868704,"form":"","sector":"","type":"client"},
{"id":10,"name":"Regensburg","city":"Regensburg","lat":49.0239983,"long":12.0759001,"form":"","sector":"","type":"client"},
{"id":11,"name":"Heilbronn","city":"Heilbronn","lat":49.1383018,"long":9.2379103,"form":"","sector":"","type":"client"},
{"id":12,"name":"Ansbach","city":"Ansbach","lat":49.3027992,"long":10.5795002,"form":"","sector":"","type":"client"},
{"id":13,"name":"Zirndorf","city":"Zirndorf","lat":49.4406013,"long":10.9583998,"form":"","sector":"","type":"client"},
{"id":14,"name":"Weiden in der Oberpfalz","city":"Weiden in der Oberpfalz","lat":49.6778984,"long":12.1606998,"form":"","sector":"","type":"client"},
{"id":15,"name":"Würzburg","city":"Würzburg","lat":49.8035011,"long":9.9440203,"form":"","sector":"","type":"client"},
{"id":16,"name":"Darmstadt/Kranichstein","city":"Darmstadt/Kranichstein","lat":49.9060287,"long":8.6789799,"form":"","sector":"","type":"client"},
{"id":17,"name":"Bayreuth","city":"Bayreuth","lat":49.9194984,"long":11.5600996,"form":"","sector":"","type":"client"},
{"id":18,"name":"Dietzenbach","city":"Dietzenbach","lat":50.0088997,"long":8.7882204,"form":"","sector":"","type":"client"},
{"id":19,"name":"Wiesbaden","city":"Wiesbaden","lat":50.0845985,"long":8.2422895,"form":"","sector":"","type":"client"},
{"id":20,"name":"Frankfurt (Oder)","city":"Frankfurt (Oder)","lat":50.1120796,"long":8.6834097,"form":"","sector":"","type":"client"},
{"id":21,"name":"Koblenz","city":"Koblenz","lat":50.3613014,"long":7.5876598,"form":"","sector":"","type":"client"},
{"id":22,"name":"Zwickau","city":"Zwickau","lat":50.7178993,"long":12.4573002,"form":"","sector":"","type":"client"},
{"id":23,"name":"Sankt Augustin","city":"Sankt Augustin","lat":50.7783012,"long":7.19874,"form":"","sector":"","type":"client"},
{"id":24,"name":"Chemnitz","city":"Chemnitz","lat":50.8362007,"long":12.9370003,"form":"","sector":"","type":"client"},
{"id":25,"name":"Arnstadt","city":"Arnstadt","lat":50.8401985,"long":10.9527998,"form":"","sector":"","type":"client"},
{"id":26,"name":"Siegen","city":"Siegen","lat":50.8670006,"long":7.9868102,"form":"","sector":"","type":"client"},
{"id":27,"name":"Freiberg","city":"Freiberg","lat":50.9105988,"long":13.3488998,"form":"","sector":"","type":"client"},
{"id":28,"name":"Erfurt","city":"Erfurt","lat":51.0283012,"long":11.0396004,"form":"","sector":"","type":"client"},
{"id":29,"name":"Leverkusen","city":"Leverkusen","lat":51.0331917,"long":6.98174,"form":"","sector":"","type":"client"},
{"id":30,"name":"Dresden","city":"Dresden","lat":51.0536308,"long":13.7408104,"form":"","sector":"","type":"client"},
{"id":31,"name":"Görlitz","city":"Görlitz","lat":51.1295013,"long":14.9834995,"form":"","sector":"","type":"client"},
{"id":32,"name":"Bautzen","city":"Bautzen","lat":51.176899,"long":14.4291,"form":"","sector":"","type":"client"},
{"id":33,"name":"Haan","city":"Haan","lat":51.2075996,"long":7.033,"form":"","sector":"","type":"client"},
{"id":34,"name":"Mühlhausen","city":"Mühlhausen","lat":51.2127304,"long":10.4503784,"form":"","sector":"","type":"client"},
{"id":35,"name":"Düsseldorf","city":"Düsseldorf","lat":51.2156296,"long":6.7760401,"form":"","sector":"","type":"client"},
{"id":36,"name":"Kassel","city":"Kassel","lat":51.3161011,"long":9.4685202,"form":"","sector":"","type":"client"},
{"id":37,"name":"Velbert","city":"Velbert","lat":51.331501,"long":7.0447302,"form":"","sector":"","type":"client"},
{"id":38,"name":"Leipzig","city":"Leipzig","lat":51.3451996,"long":12.3859396,"form":"","sector":"","type":"client"},
{"id":39,"name":"Dortmund","city":"Dortmund","lat":51.5166092,"long":7.4582901,"form":"","sector":"","type":"client"},
{"id":40,"name":"Köthen (Anhalt)","city":"Köthen (Anhalt)","lat":51.75,"long":11.9712,"form":"","sector":"","type":"client"},
{"id":41,"name":"Cottbus","city":"Cottbus","lat":51.7608986,"long":14.3507996,"form":"","sector":"","type":"client"},
{"id":42,"name":"Lutherstadt Wittenberg","city":"Lutherstadt Wittenberg","lat":51.8676796,"long":12.6486597,"form":"","sector":"","type":"client"},
{"id":43,"name":"Detmold","city":"Detmold","lat":51.9430008,"long":8.87638,"form":"","sector":"","type":"client"},
{"id":44,"name":"Bielefeld","city":"Bielefeld","lat":52.0018997,"long":8.5929098,"form":"","sector":"","type":"client"},
{"id":45,"name":"Eisenhüttenstadt","city":"Eisenhüttenstadt","lat":52.1456985,"long":14.6738005,"form":"","sector":"","type":"client"},
{"id":46,"name":"Bad Iburg","city":"Bad Iburg","lat":52.1544991,"long":8.0435696,"form":"","sector":"","type":"client"},
{"id":47,"name":"Peine","city":"Peine","lat":52.3227997,"long":10.2456999,"form":"","sector":"","type":"client"},
{"id":48,"name":"Hannover","city":"Hannover","lat":52.3722687,"long":9.7381496,"form":"","sector":"","type":"client"},
{"id":49,"name":"Potsdam","city":"Potsdam","lat":52.3828888,"long":13.04601,"form":"","sector":"","type":"client"},
{"id":50,"name":"Wolfsburg","city":"Wolfsburg","lat":52.4244003,"long":10.7974997,"form":"","sector":"","type":"client"},
{"id":51,"name":"Burgdorf","city":"Burgdorf","lat":52.450554,"long":10.010585,"form":"","sector":"","type":"client"},
{"id":52,"name":"Gifhorn","city":"Gifhorn","lat":52.4628983,"long":10.5572996,"form":"","sector":"","type":"client"},
{"id":53,"name":"Berlin","city":"Berlin","lat":52.5014076,"long":13.4023285,"form":"","sector":"","type":"client"},
{"id":54,"name":"Seelow","city":"Seelow","lat":52.5313988,"long":14.3725004,"form":"","sector":"","type":"client"},
{"id":55,"name":"Eberswalde","city":"Eberswalde","lat":52.832901,"long":13.7519999,"form":"","sector":"","type":"client"},
{"id":56,"name":"Prenzlau","city":"Prenzlau","lat":53.3168983,"long":13.8625002,"form":"","sector":"","type":"client"},
{"id":57,"name":"Hamburg","city":"Hamburg","lat":53.5533409,"long":9.9924698,"form":"","sector":"","type":"client"},
{"id":58,"name":"Schwerin","city":"Schwerin","lat":53.6259117,"long":11.4165697,"form":"","sector":"","type":"client"},
{"id":59,"name":"Rostock","city":"Rostock","lat":54.0790596,"long":12.1321602,"form":"","sector":"","type":"client"},
{"id":60,"name":"Bad Doberan","city":"Bad Doberan","lat":54.1035538,"long":11.9137468,"form":"","sector":"","type":"client"},
{"id":61,"name":"Kiel","city":"Kiel","lat":54.3232498,"long":10.1322403,"form":"","sector":"","type":"client"},
{"id":62,"name":"Unna","city":"Unna","lat":51.536205,"long":7.682768,"form":"","sector":"","type":"client"},
{"id":63,"name":"Kleve","city":"Kleve","lat":51.788017,"long":6.133647,"form":"","sector":"","type":"client"},
{"id":64,"name":"Schweinfurt","city":"Schweinfurt","lat":50.055244,"long":10.224594,"form":"","sector":"","type":"client"},
{"id":65,"name":"Köln","city":"Köln","lat":50.941746,"long":6.93822,"form":"","sector":"","type":"client"},
{"id":100,"name":"KB Container GmbH","city":"Schlüsselfeld","lat":49.745724,"long":10.6739,"form":"gewinnorientiert","sector":"Container","type":"contractor"},
{"id":101,"name":"Kleusberg GmbH & Co. KG","city":"Remseck/Neckar","lat":48.887114,"long":9.272765,"form":"gewinnorientiert","sector":"Container","type":"contractor"},
{"id":102,"name":"Deutsches Rotes Kreuz","city":"Freiburg","lat":48.005334,"long":7.827858,"form":"gemeinnützig","sector":"Betreuung/Beratung","type":"contractor"},
{"id":103,"name":"FAGSi Vertriebs und Vermietungs GmbH","city":"Bergkirchen","lat":48.2404,"long":11.34889,"form":"gewinnorientiert","sector":"Container","type":"contractor"},
{"id":104,"name":"Container Rent Petri KG","city":"Herdorf","lat":50.776501,"long":7.95554,"form":"gewinnorientiert","sector":"Container","type":"contractor"},
{"id":105,"name":"Container Rent Petri KG","city":"n.a.","lat":50.776501,"long":7.95554,"form":"gewinnorientiert","sector":"Container","type":"contractor"},
{"id":106,"name":"Conzept Container Modulbau & Handel GmbH","city":"Salzburg (Österreich)","lat":47.80401,"long":13.00711,"form":"gewinnorientiert","sector":"Bau/Planung","type":"contractor"},
{"id":107,"name":"Cental-Reinigungs-Anstalt, W. Greiner KG","city":"Ottobrunn","lat":48.064254,"long":11.668678,"form":"gewinnorientiert","sector":"Reinigung","type":"contractor"},
{"id":108,"name":"Fairprice Hostels GmbH","city":"München","lat":48.096759,"long":11.523249,"form":"gewinnorientiert","sector":"Verwaltung","type":"contractor"},
{"id":109,"name":"Ambulanz Aicher München oHG","city":"München","lat":48.134089,"long":11.66816,"form":"gewinnorientiert","sector":"Gesundheit","type":"contractor"},
{"id":110,"name":"Dussmann Service Deutschland GmbH","city":"München","lat":48.141927,"long":11.583945,"form":"gewinnorientiert","sector":"Hausmeisterdienste","type":"contractor"},
{"id":111,"name":"sdm sicherheitsdienste münchen gmbh","city":"München","lat":48.179277,"long":11.514186,"form":"gewinnorientiert","sector":"Sicherheit","type":"contractor"},
{"id":112,"name":"ESD Sicherheitsdienst GmbH","city":"Mühldorf","lat":48.247348,"long":12.525204,"form":"gewinnorientiert","sector":"Sicherheit","type":"contractor"},
{"id":113,"name":"Landesarbeitsgemeinschaft der Freiwilligen-Agenturen/Freiwilligen Zentren in Bayern e. V.","city":"Augsburg","lat":48.368286,"long":10.897566,"form":"gemeinnützig","sector":"Verwaltung","type":"contractor"},
{"id":114,"name":"Alpha Real Estate GmbH & Co. KG","city":"Nürnberg","lat":49.4581,"long":11.034521,"form":"gewinnorientiert","sector":"Bau/Planung","type":"contractor"},
{"id":115,"name":"VSD Victory Sicherheitsdienste GmbH","city":"Eschborn","lat":50.143777,"long":8.55901,"form":"gewinnorientiert","sector":"Sicherheit","type":"contractor"},
{"id":116,"name":"All Service Sicherheitsdienste GmbH","city":"Frankfurt","lat":50.148887,"long":8.678887,"form":"gewinnorientiert","sector":"Sicherheit","type":"contractor"},
{"id":117,"name":"HS Service GmbH","city":"Schwarza","lat":50.614134,"long":10.526441,"form":"gewinnorientiert","sector":"Hausmeisterdienste","type":"contractor"},
{"id":118,"name":"Berufliche Fortbildungszentren der Bayerischen Wirtschaft (bfz)","city":"München","lat":48.147447,"long":11.537229,"form":"gemeinnützig","sector":"Bildung","type":"contractor"},
{"id":119,"name":"Lehner Service GmbH","city":"Straubing","lat":48.880758,"long":12.573631,"form":"gewinnorientiert","sector":"Nahrungsmittel","type":"contractor"},
{"id":120,"name":"Diestelkam Dienstleistungsgruppe","city":"Chemnitz","lat":50.835544,"long":12.919844,"form":"gewinnorientiert","sector":"Sicherheit","type":"contractor"},
{"id":121,"name":"CDS Sicherheitsdienste GmbH","city":"Offenburg","lat":48.474384,"long":7.942314,"form":"gewinnorientiert","sector":"Sicherheit","type":"contractor"},
{"id":122,"name":"b.i.g sicherheit GmbH Objekt- und Personenschutz","city":"Karlsruhe","lat":48.998854,"long":8.409557,"form":"gewinnorientiert","sector":"Sicherheit","type":"contractor"},
{"id":123,"name":"Romak Deutschland GmbH","city":"Karlsruhe","lat":49.004984,"long":8.416046,"form":"gewinnorientiert","sector":"Sicherheit","type":"contractor"},
{"id":124,"name":"Fayazpour/Shahrokhnia GbR Ratatouille Event & Food Service","city":"Karlsruhe","lat":49.005381,"long":8.362894,"form":"gewinnorientiert","sector":"Nahrungsmittel","type":"contractor"},
{"id":125,"name":"Siba security service GmbH","city":"Karlsruhe","lat":49.011857,"long":8.423886,"form":"gewinnorientiert","sector":"Sicherheit","type":"contractor"},
{"id":126,"name":"Bietergemeinschaft Caritasverband Mannheim e.V. und Diakonieverein Mannheim","city":"Mannheim","lat":49.48707,"long":8.459868,"form":"gemeinnützig","sector":"Betreuung/Beratung","type":"contractor"},
{"id":127,"name":"Compass Group Deutschland GmbH Medirest GmbH & Co KG","city":"Eschborn","lat":50.13947,"long":8.58369,"form":"gewinnorientiert","sector":"Nahrungsmittel","type":"contractor"},
{"id":128,"name":"MMOCASH GmbH Grosshandel Jeans","city":"Bad Breisig","lat":50.512238,"long":7.295273,"form":"gewinnorientiert","sector":"Täglicher Bedarf","type":"contractor"},
{"id":129,"name":"Schuh-Höhn GmbH","city":"Viernau","lat":50.664406,"long":10.560615,"form":"gewinnorientiert","sector":"Täglicher Bedarf","type":"contractor"},
{"id":130,"name":"European Homecare GmbH","city":"Essen","lat":51.425963,"long":7.016891,"form":"gewinnorientiert","sector":"Unterbringung","type":"contractor"},
{"id":131,"name":"No. 1 Handels GmbH Dieter Cohn","city":"Lengenbostel","lat":53.301638,"long":9.505318,"form":"gewinnorientiert","sector":"Täglicher Bedarf","type":"contractor"},
{"id":132,"name":"Drei König Lebensmittelservice GmbH & Co. KG","city":"Schwäbisch Gmünd","lat":48.780227,"long":9.852727,"form":"gewinnorientiert","sector":"Nahrungsmittel","type":"contractor"},
{"id":133,"name":"Johanniter Unfall-Hilfe e. V.","city":"Regensburg","lat":48.815716,"long":11.846431,"form":"gemeinnützig","sector":"Betreuung/Beratung","type":"contractor"},
{"id":134,"name":"FAGSi Vertriebs und Vermietungs GmbH","city":"Morsbach","lat":50.899696,"long":7.702502,"form":"gewinnorientiert","sector":"Container","type":"contractor"},
{"id":135,"name":"Firma Götz Gebäudemanagement Franken","city":"Regensburg","lat":49.059908,"long":12.134069,"form":"gewinnorientiert","sector":"Reinigung","type":"contractor"},
{"id":136,"name":"Hemmerich Glas- und Gebäudereinigung","city":"Nürnberg","lat":49.440098,"long":11.072293,"form":"gewinnorientiert","sector":"Reinigung","type":"contractor"},
{"id":137,"name":"VGR Nürnberg","city":"Rückersdorf","lat":49.493676,"long":11.241403,"form":"gewinnorientiert","sector":"Reinigung","type":"contractor"},
{"id":138,"name":"Kolping Bildungswerk Weiden","city":"Weiden","lat":49.669403,"long":12.156999,"form":"gemeinnützig","sector":"Bildung","type":"contractor"},
{"id":139,"name":"SF Franken-Catering GmbH","city":"Nürnberg","lat":49.409205,"long":11.060827,"form":"gewinnorientiert","sector":"Nahrungsmittel","type":"contractor"},
{"id":140,"name":"SiServ Sicherheit und Service GmbH","city":"Büdingen","lat":50.256654,"long":9.099989,"form":"gewinnorientiert","sector":"Sicherheit","type":"contractor"},
{"id":141,"name":"Pond Sicherheit Süd GmbH","city":"Meiningen","lat":50.586875,"long":10.414362,"form":"gewinnorientiert","sector":"Sicherheit","type":"contractor"},
{"id":142,"name":"SKA Darmstadt e.V.","city":"Darmstadt","lat":49.871963,"long":8.647537,"form":"gemeinnützig","sector":"Betreuung/Beratung","type":"contractor"},
{"id":143,"name":"USS GmbH","city":"Sinsheim","lat":49.247901,"long":8.879198,"form":"gewinnorientiert","sector":"Bildung","type":"contractor"},
{"id":144,"name":"Internationaler Bund e. V. Verbund Hessen","city":"Darmstadt","lat":49.886888,"long":8.652526,"form":"gemeinnützig","sector":"Bildung","type":"contractor"},
{"id":145,"name":"startHAUS GmbH","city":"Offenbach","lat":50.10679,"long":8.747137,"form":"gewinnorientiert","sector":"Bildung","type":"contractor"},
{"id":146,"name":"SPIE GmbH","city":"Frankfurt","lat":50.078934,"long":8.626952,"form":"gewinnorientiert","sector":"Bau/Planung","type":"contractor"},
{"id":147,"name":"Medirest GmbH & Co OHG","city":"Eschborn","lat":50.13947,"long":8.58369,"form":"gewinnorientiert","sector":"Nahrungsmittel","type":"contractor"},
{"id":148,"name":"Pond Security Sevice GmbH","city":"Hanau","lat":50.148625,"long":8.935828,"form":"gewinnorientiert","sector":"Sicherheit","type":"contractor"},
{"id":149,"name":"Internationaler Bund e. V.","city":"Frankfurt (Oder)","lat":52.324067,"long":14.527344,"form":"gemeinnützig","sector":"Unterbringung","type":"contractor"},
{"id":150,"name":"Kessler & Söhne GmbH & Co. KG","city":"Stuttgart-Feuerbach","lat":48.813335,"long":9.162846,"form":"gewinnorientiert","sector":"Täglicher Bedarf","type":"contractor"},
{"id":151,"name":"C. Oberkirchers Vertriebs GmbH","city":"Bexbach","lat":49.361413,"long":7.273388,"form":"gewinnorientiert","sector":"Täglicher Bedarf","type":"contractor"},
{"id":152,"name":"Sander Catering GmbH","city":"Wiebelsheim","lat":50.079674,"long":7.6242,"form":"gewinnorientiert","sector":"Nahrungsmittel","type":"contractor"},
{"id":153,"name":"Kurtenbach GmbH & Co. KG","city":"Limburg","lat":50.40444,"long":8.06179,"form":"gewinnorientiert","sector":"Täglicher Bedarf","type":"contractor"},
{"id":154,"name":"Klüh Catering GmbH","city":"Düsseldorf","lat":51.229214,"long":6.79346,"form":"gewinnorientiert","sector":"Nahrungsmittel","type":"contractor"},
{"id":155,"name":"ADL-GmbH","city":"Münster","lat":51.97811,"long":7.610615,"form":"gewinnorientiert","sector":"Täglicher Bedarf","type":"contractor"},
{"id":156,"name":"Diakonie Stadtmission Zwickau e. V.","city":"Zwickau","lat":50.711849,"long":12.495933,"form":"gemeinnützig","sector":"Unterbringung","type":"contractor"},
{"id":157,"name":"Diakoniewerk Westsachsen gGmbH","city":"Glauchau","lat":50.814126,"long":12.550387,"form":"gemeinnützig","sector":"Unterbringung","type":"contractor"},
{"id":158,"name":"Pandechaion GmbH","city":"Leipzig","lat":51.339835,"long":12.406402,"form":"gewinnorientiert","sector":"Unterbringung","type":"contractor"},
{"id":159,"name":"Deutsche Industriebau Gesellschaft für schlüsselfertigen Industriebau Lippstadt + Geseke mbH","city":"Lippstadt","lat":51.673707,"long":8.368938,"form":"gewinnorientiert","sector":"Container","type":"contractor"},
{"id":160,"name":"ARGUS Sicherheitsservice GmbH","city":"Chemnitz","lat":50.772853,"long":12.973696,"form":"gewinnorientiert","sector":"Sicherheit","type":"contractor"},
{"id":161,"name":"ETG Chemnitz","city":"Chemnitz","lat":50.816611,"long":12.900008,"form":"gewinnorientiert","sector":"Unterbringung","type":"contractor"},
{"id":162,"name":"Securitas Chemnitz","city":"Chemnitz","lat":50.819992,"long":12.927037,"form":"gewinnorientiert","sector":"Sicherheit","type":"contractor"},
{"id":163,"name":"AG In- und Ausländer e. V.","city":"Chemnitz","lat":50.846051,"long":12.927125,"form":"gemeinnützig","sector":"Betreuung/Beratung","type":"contractor"},
{"id":164,"name":"GKK & Partner Architekten","city":"Berlin","lat":52.50308,"long":13.31276,"form":"gewinnorientiert","sector":"Bau/Planung","type":"contractor"},
{"id":165,"name":"Human Care GmbH","city":"Bremen","lat":53.076587,"long":8.80247,"form":"gewinnorientiert","sector":"Unterbringung","type":"contractor"},
{"id":166,"name":"Fischer Cateringservice & Events","city":"Siegen","lat":50.876805,"long":8.018785,"form":"gewinnorientiert","sector":"Nahrungsmittel","type":"contractor"},
{"id":167,"name":"Campanet GmbH","city":"Freiburg","lat":47.989737,"long":7.91354,"form":"gewinnorientiert","sector":"Unterbringung","type":"contractor"},
{"id":168,"name":"ITT Industrie- u. Transportschutz Thüringen GmbH","city":"Erfurt","lat":50.972003,"long":11.011692,"form":"gewinnorientiert","sector":"Sicherheit","type":"contractor"},
{"id":169,"name":"RECON Germany GmbH","city":"Kiefersfelden","lat":47.6161003,"long":12.1703997,"form":"gewinnorientiert","sector":"Container","type":"contractor"},
{"id":170,"name":"R.S.D. plus Sicherheitsdienste GmbH & Co.KG","city":"Köln","lat":50.9416695,"long":6.9551601,"form":"gewinnorientiert","sector":"Sicherheit","type":"contractor"},
{"id":171,"name":"DK Integrationsbetriebe gGmbH","city":"Bergisch Gladbach","lat":50.9894981,"long":7.1231599,"form":"gemeinnützig","sector":"Nahrungsmittel","type":"contractor"},
{"id":172,"name":"Herchenbach Industrie-Zeltebau GmbH","city":"Hennef","lat":50.784293,"long":7.265235,"form":"gewinnorientiert","sector":"Bau/Planung","type":"contractor"},
{"id":173,"name":"elektro-union freiberg GmbH","city":"Freiberg","lat":50.913041,"long":13.349355,"form":"gewinnorientiert","sector":"Bau/Planung","type":"contractor"},
{"id":174,"name":"Thomas Stanitz","city":"Dresden","lat":51.03881,"long":13.670664,"form":"gewinnorientiert","sector":"Verwaltung","type":"contractor"},
{"id":175,"name":"Thomas Wolter GmbH","city":"Dresden","lat":51.07276,"long":13.746823,"form":"gewinnorientiert","sector":"Unterbringung","type":"contractor"},
{"id":176,"name":"Asylbetreuungs- und Beherbergungs GmbH","city":"Grimma","lat":51.250954,"long":12.77176,"form":"gewinnorientiert","sector":"Unterbringung","type":"contractor"},
{"id":177,"name":"K&S - Dr. Krantz Sozialbau und Betreuung SE & Co. KG","city":"Sottrum","lat":53.114253,"long":9.242203,"form":"gewinnorientiert","sector":"Unterbringung","type":"contractor"},
{"id":178,"name":"Kleusberg GmbH & Co. KG","city":"Wissem","lat":50.78198,"long":7.75732,"form":"gewinnorientiert","sector":"Container","type":"contractor"},
{"id":179,"name":"ESG mbH","city":"Villingen-Schwennigen","lat":48.029702,"long":8.458024,"form":"gewinnorientiert","sector":"Sicherheit","type":"contractor"},
{"id":180,"name":"DWS Service GmbH","city":"Heilbad Heiligenstadt","lat":51.333572,"long":10.153851,"form":"gewinnorientiert","sector":"Sicherheit","type":"contractor"},
{"id":181,"name":"Randstad Outsourcing GmbH","city":"Eschborn","lat":50.138806,"long":8.584868,"form":"gewinnorientiert","sector":"Verwaltung","type":"contractor"},
{"id":182,"name":"FAGSi Vertriebs und Vermietungs GmbH","city":"Morsbach-Lichtenberg","lat":50.899696,"long":7.702502,"form":"gewinnorientiert","sector":"Container","type":"contractor"},
{"id":183,"name":"S.W.S. Schnock GmbH","city":"Neuss","lat":51.168927,"long":6.752743,"form":"gewinnorientiert","sector":"Sicherheit","type":"contractor"},
{"id":184,"name":"IDR Sonstige Gewerbeimmobilien II GmbH & Co. KG","city":"Düsseldorf","lat":51.174629,"long":6.846977,"form":"gewinnorientiert","sector":"Container","type":"contractor"},
{"id":185,"name":"Bolle Mobile Raumsysteme GmbH","city":"Telgte","lat":51.983523,"long":7.769285,"form":"gewinnorientiert","sector":"Container","type":"contractor"},
{"id":186,"name":"Adecco Personaldienstleistungen GmbH","city":"Münster","lat":51.984218,"long":7.620116,"form":"gewinnorientiert","sector":"Verwaltung","type":"contractor"},
{"id":187,"name":"Vinber GmbH","city":"Kassel","lat":51.307107,"long":9.39607,"form":"gewinnorientiert","sector":"Unterbringung","type":"contractor"},
{"id":188,"name":"Caritasverband Nordhessen-Kassel e. V.","city":"Kassel","lat":51.316336,"long":9.501803,"form":"gemeinnützig","sector":"Unterbringung","type":"contractor"},
{"id":189,"name":"ARGE Hartmann + Helm/Junk & Reich c/o Hartmann+Helm Planungsgesellschaft mbH","city":"Weimar","lat":50.978528,"long":11.327263,"form":"gewinnorientiert","sector":"Bau/Planung","type":"contractor"},
{"id":190,"name":"Köster GmbH","city":"Leipzig","lat":51.40194,"long":12.38857,"form":"gewinnorientiert","sector":"Bau/Planung","type":"contractor"},
{"id":191,"name":"STRABAG AG, Direktion Sachsen, Bereich Nordsachsen","city":"Schkeuditz","lat":51.437144,"long":12.315316,"form":"gewinnorientiert","sector":"Bau/Planung","type":"contractor"},
{"id":192,"name":"Hoffmann-Reisen GmbH","city":"Wetter","lat":51.382216,"long":7.391625,"form":"gewinnorientiert","sector":"Transport","type":"contractor"},
{"id":193,"name":"Johanniter Unfall-Hilfe e. V.","city":"Dortmund","lat":51.488475,"long":7.555086,"form":"gemeinnützig","sector":"Unterbringung","type":"contractor"},
{"id":194,"name":"Deutsches Rotes Kreuz","city":"Dortmund","lat":51.509022,"long":7.452728,"form":"gemeinnützig","sector":"Unterbringung","type":"contractor"},
{"id":195,"name":"gGID mbH Gesellschaft für interkulturelle Dienstleistungen mbH","city":"Dortmund","lat":51.511301,"long":7.436071,"form":"gemeinnützig","sector":"Unterbringung","type":"contractor"},
{"id":196,"name":"Caritasverband Dortmund e. V","city":"Dortmund","lat":51.513547,"long":7.462233,"form":"gemeinnützig","sector":"Unterbringung","type":"contractor"},
{"id":197,"name":"Arbeiterwohlfahrt Unterbezirk Dortmund","city":"Dortmund","lat":51.516017,"long":7.470014,"form":"gemeinnützig","sector":"Unterbringung","type":"contractor"},
{"id":198,"name":"Diakonisches Werk Dortmund und Lünen gGmbH","city":"Dortmund","lat":51.521733,"long":7.472307,"form":"gemeinnützig","sector":"Unterbringung","type":"contractor"},
{"id":199,"name":"Alliance Medical GmbH","city":"Castrop-Rauxel","lat":51.546848,"long":7.296219,"form":"gewinnorientiert","sector":"Gesundheit","type":"contractor"},
{"id":200,"name":"Omnibus Rott","city":"Lünen","lat":51.612234,"long":7.523046,"form":"gewinnorientiert","sector":"Transport","type":"contractor"},
{"id":201,"name":"AREAL Handels- und Montagegesellschaft mbH & Co. KG","city":"Berlin","lat":52.558385,"long":13.339228,"form":"gewinnorientiert","sector":"Bau/Planung","type":"contractor"},
{"id":202,"name":"Grundstücksverwaltungs- und Verwertungsgesellschaft GbR „Ernst & Partner”","city":"Naumburg","lat":51.146837,"long":11.806166,"form":"gewinnorientiert","sector":"Unterbringung","type":"contractor"},
{"id":203,"name":"Beherbergungsbetrieb Gerhard Krumrey","city":"Muldestausee","lat":51.661365,"long":12.354706,"form":"gewinnorientiert","sector":"Unterbringung","type":"contractor"},
{"id":204,"name":"Malteser Werke gGmbH","city":"Köln","lat":50.937055,"long":6.995948,"form":"gemeinnützig","sector":"Unterbringung","type":"contractor"},
{"id":205,"name":"GGS GmbH","city":"Cottbus","lat":51.714886,"long":14.314997,"form":"gewinnorientiert","sector":"Sicherheit","type":"contractor"},
{"id":206,"name":"KVW Beherbergungsbetriebe GmbH","city":"Bad Wildungen","lat":51.120019,"long":9.118989,"form":"gewinnorientiert","sector":"Unterbringung","type":"contractor"},
{"id":207,"name":"Lausen Mineralöl- und Schmierstoffhandel GmbH","city":"Paderborn","lat":51.7068,"long":8.72953,"form":"gewinnorientiert","sector":"Sonstiges","type":"contractor"},
{"id":208,"name":"Steinborn Omnibusbetrieb GmbH","city":"Erbach","lat":48.325038,"long":9.896979,"form":"gewinnorientiert","sector":"Transport","type":"contractor"},
{"id":209,"name":"Fortbildungsakademie der Wirtschaft (FAW) gemeinnützige Gesellschaft mbH","city":"Henningsdorf","lat":52.633779,"long":13.206671,"form":"gemeinnützig","sector":"Bildung","type":"contractor"},
{"id":210,"name":"Wörmann Architekten GmbH","city":"Ostbevern","lat":52.033655,"long":7.83335,"form":"gewinnorientiert","sector":"Bau/Planung","type":"contractor"},
{"id":211,"name":"Dienstleistungen Deike","city":"Sehnde","lat":52.347719,"long":9.938872,"form":"gewinnorientiert","sector":"Hausmeisterdienste","type":"contractor"},
{"id":212,"name":"Kaufmann Bausysteme GmbH","city":"Reuthe","lat":47.56123,"long":9.993836,"form":"gewinnorientiert","sector":"Bau/Planung","type":"contractor"},
{"id":213,"name":"Westtours-Reisen GmbH","city":"Bonn","lat":50.727544,"long":7.109966,"form":"gewinnorientiert","sector":"Transport","type":"contractor"},
{"id":214,"name":"Algeco GmbH; NL NRW","city":"Neuss","lat":51.15565,"long":6.777312,"form":"gewinnorientiert","sector":"Bau/Planung","type":"contractor"},
{"id":215,"name":"G. Ungrund GmbH","city":"Neuenkirchen","lat":52.251625,"long":7.380018,"form":"gewinnorientiert","sector":"Bau/Planung","type":"contractor"},
{"id":216,"name":"Zimmerermeister Karsten Jantzen GmbH","city":"Sievershagen","lat":54.107745,"long":12.018973,"form":"gewinnorientiert","sector":"Bau/Planung","type":"contractor"},
{"id":217,"name":"Soziale Stadt Potsdam e. V.","city":"Potsdam","lat":52.379681,"long":13.092586,"form":"gemeinnützig","sector":"Unterbringung","type":"contractor"},
{"id":218,"name":"Kleusberg GmbH & Co. KG","city":"Wissen","lat":50.8153191,"long":7.7146726,"form":"gewinnorientiert","sector":"Bau/Planung","type":"contractor"},
{"id":219,"name":"SILOCO GmbH & Co. KG","city":"Hamburg","lat":53.493129,"long":10.108972,"form":"gewinnorientiert","sector":"Container","type":"contractor"},
{"id":220,"name":"GHS German Healthcare Services","city":"Ohrid (Mazedonien)","lat":41.121616,"long":20.819437,"form":"gewinnorientiert","sector":"Container","type":"contractor"},
{"id":221,"name":"Hepamos","city":"Proszowice (Polen)","lat":50.20837,"long":20.28956,"form":"gewinnorientiert","sector":"Bau/Planung","type":"contractor"},
{"id":222,"name":"Säbu Morsbach GmbH","city":"Morsbach-Schlechtingen","lat":50.860722,"long":7.75002,"form":"gewinnorientiert","sector":"Container","type":"contractor"},
{"id":223,"name":"ProContain (ALHO-Systembau) GmbH","city":"Dresden","lat":51.004182,"long":13.788418,"form":"gewinnorientiert","sector":"Container","type":"contractor"},
{"id":224,"name":"Algeco GmbH","city":"Mittenwalde","lat":52.250503,"long":13.522091,"form":"gewinnorientiert","sector":"Container","type":"contractor"},
{"id":225,"name":"GNEISE Planungs- und Beratungsgesellschaft","city":"Berlin","lat":52.466873,"long":13.484985,"form":"gewinnorientiert","sector":"Bau/Planung","type":"contractor"},
{"id":226,"name":"B4-Plan Ingenieurgesellschaft mbH","city":"Berlin","lat":52.471749,"long":13.365868,"form":"gewinnorientiert","sector":"Bau/Planung","type":"contractor"},
{"id":227,"name":"Sting Architekten ELW Gesellsch.f.Architekten mbH","city":"Berlin","lat":52.50041,"long":13.31952,"form":"gewinnorientiert","sector":"Bau/Planung","type":"contractor"},
{"id":228,"name":"Planungsbüro Rohling AG, Architekten und Ingenieure","city":"Berlin","lat":52.50891,"long":13.43298,"form":"gewinnorientiert","sector":"Bau/Planung","type":"contractor"},
{"id":229,"name":"Asseon Bau GmbH","city":"Berlin","lat":52.52977,"long":13.399771,"form":"gewinnorientiert","sector":"Container","type":"contractor"},
{"id":230,"name":"TOI TOI & DIXI Sanitärsysteme GmbH","city":"Berlin","lat":52.5312,"long":13.12417,"form":"gewinnorientiert","sector":"Container","type":"contractor"},
{"id":231,"name":"CHB – Container-Handelsbüro Peter Bonitz","city":"Berlin","lat":52.544288,"long":13.504538,"form":"gewinnorientiert","sector":"Container","type":"contractor"},
{"id":232,"name":"Internationaler Bund e. V.","city":"Neuenhagen","lat":52.52382,"long":13.71039,"form":"gemeinnützig","sector":"Unterbringung","type":"contractor"},
{"id":233,"name":"Meier Medizintechnik","city":"Petershagen-Friedewalde","lat":52.354465,"long":8.850352,"form":"gewinnorientiert","sector":"Täglicher Bedarf","type":"contractor"},
{"id":234,"name":"Berufsbildungsstätte START GmbH","city":"Ludwigslust","lat":53.335822,"long":11.418406,"form":"gewinnorientiert","sector":"Bildung","type":"contractor"},
{"id":235,"name":"Hansa Baustahl KG","city":"Hamburg","lat":53.522081,"long":10.096052,"form":"gewinnorientiert","sector":"Container","type":"contractor"},
{"id":236,"name":"KG Hansa Baustahl Handelsgesellschaft m.b.H. & Co.","city":"Hamburg","lat":53.522081,"long":10.096052,"form":"gewinnorientiert","sector":"Container","type":"contractor"},
{"id":237,"name":"Alsterfood GmbH","city":"Hamburg","lat":53.612623,"long":10.025338,"form":"gewinnorientiert","sector":"Nahrungsmittel","type":"contractor"},
{"id":238,"name":"Sodexo","city":"Berlin","lat":52.52666,"long":13.52403,"form":"gewinnorientiert","sector":"Nahrungsmittel","type":"contractor"},
{"id":239,"name":"Menü 2000 Catering Röttgers","city":"Papenburg","lat":53.0882,"long":7.406576,"form":"gewinnorientiert","sector":"Nahrungsmittel","type":"contractor"},
{"id":240,"name":"ExSiRo Ges. f. Externe Sicherheitsdienste u. Sicherheitstechn.","city":"Rostock","lat":54.115688,"long":12.070465,"form":"gewinnorientiert","sector":"Sicherheit","type":"contractor"},
{"id":241,"name":"WSD GmbH & Co. KG","city":"Rostock","lat":54.085065,"long":12.198024,"form":"gewinnorientiert","sector":"Sicherheit","type":"contractor"},
{"id":242,"name":"Ökohaus Rostock e. V.","city":"Rostock","lat":54.085844,"long":12.135912,"form":"gemeinnützig","sector":"Unterbringung","type":"contractor"},
{"id":243,"name":"Sodexo SCS GmbH","city":"Rostock","lat":54.127573,"long":12.078567,"form":"gewinnorientiert","sector":"Nahrungsmittel","type":"contractor"},
{"id":244,"name":"Agentour 25 Dienstleistungs GmbH","city":"Unterföhring","lat":48.197732,"long":11.647054,"form":"gewinnorientiert","sector":"Nahrungsmittel","type":"contractor"},
{"id":245,"name":"Vivanti GmbH","city":"Baden-Baden","lat":48.73635,"long":8.18041,"form":"gewwinnorientiert","sector":"Nahrungsmittel","type":"contractor"},
{"id":246,"name":"eps infrastructure service GmbH","city":"Frankfurt","lat":50.219063,"long":8.64158,"form":"gewinnorientiert","sector":"Container","type":"contractor"},
{"id":247,"name":"Pond Sicherheit Nord GmbH","city":"Hamburg","lat":53.604612,"long":10.019718,"form":"gewinnorientiert","sector":"Sicherheit","type":"contractor"},
{"id":248,"name":"secura protect Nord GmbH","city":"Hamburg","lat":53.604612,"long":10.019718,"form":"gewinnorientiert","sector":"Sicherheit","type":"contractor"},
{"id":249,"name":"Klüh Catering GmbH","city":"Hamburg","lat":53.620006,"long":10.014827,"form":"gewinnorientiert","sector":"Nahrungsmittel","type":"contractor"},
{"id":250,"name":"Notarzt-Börse Dr. Andre Kröncke","city":"Pogeez","lat":53.747732,"long":10.728788,"form":"gewinnorientiert","sector":"Gesundheit","type":"contractor"},
{"id":251,"name":"Bockholdt Gebäudedienste KG","city":"Lübeck","lat":53.852027,"long":10.739308,"form":"gewinnorientiert","sector":"Reinigung","type":"contractor"},
{"id":252,"name":"DRK-Betreuungsdienste Lübeck gGmbH","city":"Lübeck","lat":53.874169,"long":10.652311,"form":"gemeinnützig","sector":"Betreuung/Beratung","type":"contractor"},
{"id":253,"name":"DRK Kreisverband Neumünster e. V.","city":"Neumünster","lat":54.069126,"long":9.978783,"form":"gemeinnützig","sector":"Nahrungsmittel","type":"contractor"},
{"id":254,"name":"DRK Betreuungsgesellschaft Neumünster gGmbH","city":"Neumünster","lat":54.07461,"long":9.981178,"form":"gemeinnützig","sector":"Betreuung/Beratung","type":"contractor"},
{"id":255,"name":"Deutsches Rotes Kreuz Kreisverband Ostholstein e. V.","city":"Eutin","lat":54.138246,"long":10.603512,"form":"gemeinnützig","sector":"Betreuung/Beratung","type":"contractor"},
{"id":256,"name":"Deutsches Rotes Kreuz Kreisverband Dithmarschen e. V.","city":"Heide","lat":54.197251,"long":9.108515,"form":"gemeinnützig","sector":"Betreuung/Beratung","type":"contractor"},
{"id":257,"name":"Landesverband der Volkshochschulen S-H","city":"Kiel","lat":54.322253,"long":10.136923,"form":"gemeinnützig","sector":"Bildung","type":"contractor"},
{"id":258,"name":"Förde-vhs","city":"Kiel","lat":54.327726,"long":10.135963,"form":"gemeinnützig","sector":"Bildung","type":"contractor"},
{"id":259,"name":"DRK-Betreuungsdienste Reg. Kiel gGmbH","city":"Kiel","lat":54.332048,"long":10.144366,"form":"gemeinnützig","sector":"Unterbringung","type":"contractor"},
{"id":260,"name":"Friedrich Niemann GmbH & Co. KG","city":"Kronshagen","lat":54.338648,"long":10.101797,"form":"gewinnorientiert","sector":"Container","type":"contractor"},
{"id":261,"name":"Sani GmbH","city":"Borgstedt","lat":54.346228,"long":9.697688,"form":"gewinnorientiert","sector":"Container","type":"contractor"},
{"id":262,"name":"Sicherheitsdienst Osthiolstein","city":"Burg auf Fehmarn","lat":54.478556,"long":11.070528,"form":"gewinnorientiert","sector":"Sicherheit","type":"contractor"},
{"id":263,"name":"Deutsches Rotes Kreuz Dienstleistungsgesellschaft Nordfriesland mbH","city":"Husum","lat":54.491012,"long":9.069873,"form":"gemeinnützig","sector":"Unterbringung","type":"contractor"},
{"id":264,"name":"DRK-Betreuung Nord gGmbH","city":"Schleswig","lat":54.5161,"long":9.5608,"form":"gemeinnützig","sector":"Unterbringung","type":"contractor"},
{"id":265,"name":"Volkshochschule Flensburg","city":"Kiel","lat":54.786176,"long":9.436694,"form":"gemeinnützig","sector":"Bildung","type":"contractor"},
{"id":266,"name":"Gremmel Bedachungen GmbH","city":"Pattensen","lat":52.265952,"long":9.779697,"form":"gewinnorientiert","sector":"Bau/Planung","type":"contractor"},
{"id":267,"name":"Weimann GmbH","city":"Helmstedt","lat":52.250372,"long":10.992525,"form":"gewinnorientiert","sector":"Bau/Planung","type":"contractor"},
{"id":268,"name":"Bill-Veranstaltungslogistik GmbH","city":"Lich","lat":50.516244,"long":8.817619,"form":"gewinnorientiert","sector":"Bau/Planung","type":"contractor"},
{"id":269,"name":"Projektbau Depenbrock","city":"Hannover","lat":52.430939,"long":9.658829,"form":"gewinnorientiert","sector":"Bau/Planung","type":"contractor"},
{"id":270,"name":"Maternus Mobil","city":"Kleve","lat":51.799833,"long":6.134843,"form":"gewinnorientiert","sector":"Nahrungsmittel","type":"contractor"},
{"id":271,"name":"Vatterodt Dienstleistungen e. k","city":"Sennfeld","lat":50.033651,"long":10.256351,"form":"gewinnorientiert","sector":"Reinigung","type":"contractor"},
{"id":272,"name":"Klüh Cleaning GmbH","city":"Mörfelden-Walldorf","lat":49.988217,"long":8.577666,"form":"gewinnorientiert","sector":"Reinigung","type":"contractor"},
{"id":273,"name":"Kieler Wach – und Sicherheitsgesellschaft","city":"Kiel","lat":54.30779,"long":10.123958,"form":"gewinnorientiert","sector":"Sicherheit","type":"contractor"},
{"id":274,"name":"Endler GmbH","city":"Meckenheim","lat":50.651334,"long":7.015644,"form":"gewinnorientiert","sector":"Sicherheit","type":"contractor"},
{"id":275,"name":"Randstad Deutschland GmbH & Co. KG","city":"Köln","lat":50.942456,"long":6.957231,"form":"gewinnorientiert","sector":"Sonstiges","type":"contractor"},
{"id":276,"name":"ASS-Einrichtungssysteme GmbH","city":"Stockheim","lat":50.307518,"long":11.280552,"form":"gewinnorientiert","sector":"Sonstiges","type":"contractor"},
{"id":277,"name":"DRK-Kreisverband Plöner Land e. V.","city":"Schellhorn","lat":54.229727,"long":10.294489,"form":"gemeinnützig","sector":"Betreuung/Beratung","type":"contractor"},
{"id":278,"name":"Johanniter-Unfall-Hilfe e. V. Regionalverband Zwickau/Vogtland","city":"Werdau","lat":50.73783,"long":12.37346,"form":"gemeinnützig","sector":"Unterbringung","type":"contractor"}]